Date,Time,Latitude,Longitude,Pitch,Roll,Yaw,GyroX,GyroY,GyroZ,MagX,MagY,MagZ,AccX,AccY,AccZ,ImgNo
05/05/2021,04:44:35.891319,51:32:22.8,-13:31:23.0,0.0,0.2764666075712375,0.0009377677975182265,0.30186548829078674,0.1071104109287262,0.0006039924919605255,8.7335205078125,-9.449747085571289,50.26921081542969,-0.00024683563970029354,0.02840672992169857,0.01437811367213726,
05/05/2021,04:44:36.288533,51:32:36.9,-13:25:24.6,3.443874654291282,10.193678260745095,0.3415733047611213,0.29697856307029724,0.1016126200556755,-0.0003123050555586815,10.559998512268066,-11.044675827026367,58.52461624145508,-0.0024683563970029354,0.028892317786812782,0.01657138578593731,
05/05/2021,04:44:36.865475,51:32:50.5,-13:19:26.1,6.7208681503652885,20.06220365850444,1.2621648507135252,0.29606226086616516,0.10405607521533966,0.0006039924919605255,10.441266059875488,-11.532785415649414,59.14405822753906,-0.0029620276764035225,0.02840672992169857,0.017789868637919426,
05/05/2021,04:44:37.456500,51:32:50.5,-13:19:26.1,9.97779476410121,30.531884740967875,2.8329808273780492,0.3003383278846741,0.10558323562145233,0.0009094253182411194,10.912527084350586,-11.204314231872559,59.27985382080078,-0.0017278495943173766,0.029620693996548653,0.013890719972550869,
05/05/2021,04:44:38.040199,51:33:03.9,-13:13:27.6,12.761522883930885,40.93565279039339,4.910993525037909,0.2997274398803711,0.10344520956277847,0.0009094253182411194,10.825157165527344,-11.194624900817871,58.60333251953125,-0.0037025348283350468,0.028649523854255676,0.015109204687178135,
05/05/2021,04:44:38.616874,51:33:03.9,-13:13:27.6,15.19543091258731,51.3240938953214,7.509685416949592,0.30094918608665466,0.10527780652046204,-0.0003123050555586815,10.807561874389648,-11.526784896850586,58.70497512817383,-0.002715192036703229,0.027192767709493637,0.01803356595337391,
05/05/2021,04:44:39.199347,51:33:16.9,-13:07:29.1,17.072211509703195,62.72064360098661,10.723554091270929,0.3003383278846741,0.1019180491566658,0.00029855966567993164,10.707443237304688,-11.20742416381836,58.880699157714844,-0.0024683563970029354,0.027192767709493637,0.013890719972550869,
05/05/2021,04:44:39.807508,51:33:29.6,-13:01:30.4,18.449973363416074,73.5694565314464,14.128791005757684,0.29606226086616516,0.10527780652046204,0.0006039924919605255,10.776028633117676,-11.592279434204102,58.844303131103516,-0.002715192036703229,0.026464389637112617,0.01364702358841896,
05/05/2021,04:44:41.247064,51:33:29.6,-13:01:30.4,19.09968315538249,95.4297296870715,21.305538851615005,0.30125463008880615,0.10558323562145233,0.0006039924919605255,10.255473136901855,-10.960192680358887,59.08711624145508,-0.004689877387136221,0.027921147644519806,0.014134417288005352,1
05/05/2021,04:44:41.521962,51:33:42.0,-12:55:31.8,18.460401354731392,106.45814927194596,24.89229487348402,0.2991165816783905,0.10436151176691055,0.0009094253182411194,10.739886283874512,-11.843411445617676,59.19697952270508,-0.0014810138382017612,0.02840672992169857,0.012672236189246178,
05/05/2021,04:44:42.102325,51:33:54.0,-12:49:33.0,17.211834236716598,117.44608632560974,28.228400028286487,0.299422025680542,0.10558323562145233,0.00029855966567993164,10.371411323547363,-11.671305656433105,58.611976623535156,-0.003208863316103816,0.029377900063991547,0.01364702358841896,
05/05/2021,04:44:42.681773,51:33:54.0,-12:49:33.0,15.364846924760306,128.22218506216558,31.193678845123333,0.3000328838825226,0.10558323562145233,0.0009094253182411194,10.705466270446777,-11.650958061218262,58.63681411743164,-0.004689877387136221,0.028163937851786613,0.01803356595337391,
05/05/2021,04:44:43.261828,51:34:05.7,-12:43:34.2,12.993284862847759,138.81493420064157,33.75311465166719,0.2985057234764099,0.10344520956277847,-0.0003123050555586815,10.163534164428711,-11.542096138000488,58.4425163269043,-0.004443041514605284,0.02840672992169857,0.017789868637919426,
05/05/2021,04:44:43.861896,51:34:17.1,-12:37:35.4,10.07121211515312,149.52438395127643,35.860719784236366,0.29728400707244873,0.10405607521533966,-0.0003123050555586815,10.455852508544922,-10.805286407470703,58.75193405151367,-0.002715192036703229,0.027192767709493637,0.017058778554201126,
05/05/2021,04:44:45.326063,51:34:17.1,-12:37:35.4,3.5839633282721244,169.49177263127007,38.20071868822064,0.299422025680542,0.10344520956277847,0.002436588518321514,10.57485580444336,-11.326324462890625,59.064910888671875,-0.0014810138382017612,0.029377900063991547,0.01364702358841896,2
05/05/2021,04:44:45.605011,51:34:28.2,-12:31:36.5,0.17359794223468203,179.39265092758046,38.50899244622,0.29728400707244873,0.1019180491566658,-0.001228603534400463,10.705621719360352,-10.840780258178711,58.10326385498047,-0.006417726632207632,0.0276783537119627,0.017789868637919426,
05/05/2021,04:44:46.185764,51:34:38.9,-12:25:37.5,356.7182642182079,189.272017770471,38.19853302768624,0.29606226086616516,0.10405607521533966,0.002436588518321514,10.395801544189453,-11.110053062438965,57.98741149902344,-0.006417726632207632,0.02694997750222683,0.014621810987591743,
05/05/2021,04:44:46.768771,51:34:49.3,-12:19:38.5,353.25285952699227,199.48297299472165,37.274722621685335,0.30094918608665466,0.1022234857082367,0.00029855966567993164,10.277839660644531,-11.075533866882324,58.522239685058594,-0.0019746851176023483,0.028163937851786613,0.012672236189246178,
05/05/2021,04:44:47.352411,51:34:49.3,-12:19:38.5,350.04639861971265,209.61133757152848,35.750647870667024,0.29758942127227783,0.10436151176691055,0.00029855966567993164,10.204574584960938,-11.58187198638916,58.854270935058594,-0.0037025348283350468,0.027435559779405594,0.012915932573378086,
05/05/2021,04:44:47.948891,51:34:59.3,-12:13:39.5,347.08585568529156,220.2348772027829,33.60585235806713,0.2997274398803711,0.10313978046178818,-0.0006177378818392754,10.014972686767578,-11.189739227294922,58.643733978271484,-0.0069113983772695065,0.028892317786812782,0.01584029383957386,
05/05/2021,04:44:49.405192,51:34:59.3,-12:13:39.5,342.74057129759944,241.22635712617156,28.088755103158284,0.2985057234764099,0.10466694086790085,0.00029855966567993164,10.308881759643555,-11.353456497192383,59.051212310791016,-0.0029620276764035225,0.027192767709493637,0.016815081238746643,3
05/05/2021,04:44:49.686810,51:35:09.1,-12:07:40.4,341.34657237668216,252.2939956572602,24.63025637352377,0.29758942127227783,0.1071104109287262,-0.0006177378818392754,10.140605926513672,-11.341036796569824,59.10161590576172,-0.004689877387136221,0.02986348792910576,0.011941145174205303,
05/05/2021,04:44:50.274848,51:35:18.5,-12:01:41.3,340.60787546511426,263.46436706365506,20.937207240243726,0.30094918608665466,0.10344520956277847,0.0009094253182411194,10.066363334655762,-11.40363597869873,59.111515045166016,-0.006417726632207632,0.02913510985672474,0.015109204687178135,
05/05/2021,04:44:50.853174,51:35:27.5,-11:55:42.1,340.5639436883727,274.6697568499245,17.284502326843654,0.29667311906814575,0.10466694086790085,-6.872229278087616e-06,10.26608943939209,-11.256091117858887,59.24436950683594,-0.004936712794005871,0.0276783537119627,0.014865507371723652,
05/05/2021,04:44:51.438279,51:35:27.5,-11:55:42.1,341.2071545553439,285.62905492039846,13.727402986350837,0.2978948652744293,0.10588867962360382,0.0009094253182411194,10.020024299621582,-11.429226875305176,58.70328903198242,-0.0029620276764035225,0.026707183569669724,0.015596598386764526,
05/05/2021,04:44:52.885151,51:35:36.3,-11:49:42.9,344.2258437439429,307.3284873663535,7.312898275451416,0.2997274398803711,0.10466694086790085,0.0006039924919605255,10.157514572143555,-11.236126899719238,58.73530197143555,-0.0017278495943173766,0.027921147644519806,0.016083991155028343,4
05/05/2021,04:44:53.172108,51:35:44.7,-11:43:43.6,346.58158623396406,318.1787107308769,4.699427988609941,0.2988111674785614,0.10130718350410461,0.0006039924919605255,10.255433082580566,-11.510093688964844,59.19329071044922,-0.0017278495943173766,0.026464389637112617,0.016083991155028343,
05/05/2021,04:44:53.759766,51:35:52.7,-11:37:44.4,349.4003421251785,329.12174270584245,2.5275430919881297,0.2985057234764099,0.10466694086790085,0.00029855966567993164,10.089187622070312,-11.401361465454102,58.741249084472656,-0.002715192036703229,0.028649523854255676,0.01584029383957386,
05/05/2021,04:44:54.377297,51:35:52.7,-11:37:44.4,352.6435430468905,339.3570424318423,1.0450743315772515,0.29545140266418457,0.10130718350410461,0.0012148581445217133,9.981535911560059,-11.880942344665527,58.28590774536133,-0.0029620276764035225,0.027921147644519806,0.013159629888832569,
05/05/2021,04:44:54.945419,51:36:00.5,-11:31:45.0,355.95884472614154,349.32313622812165,0.1656472551952434,0.30156004428863525,0.10375064611434937,0.0018257228657603264,10.40035343170166,-11.688502311706543,59.38066864013672,-0.006417726632207632,0.02913510985672474,0.01437811367213726,
05/05/2021,04:44:55.522960,51:36:00.5,-11:31:45.0,359.44996694721215,359.34508512363834,359.8124707130143,0.3000328838825226,0.1071104109287262,0.0009094253182411194,10.429569244384766,-11.304014205932617,59.11016845703125,-0.004936712794005871,0.027435559779405594,0.013890719972550869,
05/05/2021,04:44:56.963612,51:36:07.9,-11:25:45.7,6.080603656247355,18.920411180237164,1.0424209098064072,0.2991165816783905,0.10558323562145233,-0.001228603534400463,10.423641204833984,-11.451553344726562,58.43634033203125,-0.005677219945937395,0.028649523854255676,0.014865507371723652,5
05/05/2021,04:44:57.255650,51:36:15.0,-11:19:46.3,9.296178597200726,29.1813172854354,2.477861149739103,0.2985057234764099,0.10558323562145233,0.00029855966567993164,10.067109107971191,-11.523637771606445,58.453670501708984,-0.0009873425588011742,0.0276783537119627,0.015596598386764526,
05/05/2021,04:44:57.841561,51:36:21.7,-11:13:46.8,12.267447489939673,39.644101584384416,4.539457274285426,0.2978948652744293,0.10649953782558441,0.00029855966567993164,10.334037780761719,-11.338113784790039,58.96397399902344,-0.0024683563970029354,0.028892317786812782,0.017546173185110092,
05/05/2021,04:44:58.448107,51:36:21.7,-11:13:46.8,14.83390558472395,50.914924582902614,7.247526534905224,0.2997274398803711,0.10497237741947174,-0.0006177378818392754,9.965068817138672,-11.353691101074219,59.007041931152344,-0.0004936712794005871,0.02840672992169857,0.014865507371723652,
05/05/2021,04:44:59.047432,51:36:28.1,-11:07:47.4,16.806809141576718,62.053511703994786,10.361157060514747,0.2991165816783905,0.10375064611434937,0.0006039924919605255,10.130178451538086,-10.90192985534668,58.68769073486328,-0.0014810138382017612,0.029377900063991547,0.014621810987591743,
05/05/2021,04:44:59.641596,51:36:28.1,-11:07:47.4,18.173512919023345,73.20736771297652,13.802819373845178,0.2988111674785614,0.10313978046178818,0.0006039924919605255,10.194119453430176,-10.909984588623047,59.29777908325195,-0.002715192036703229,0.027435559779405594,0.019495747983455658,
05/05/2021,04:45:01.109167,51:36:34.2,-11:01:47.9,18.80883662505042,95.34097137880718,21.034870407638447,0.2991165816783905,0.10619410872459412,0.0009094253182411194,10.482012748718262,-11.002216339111328,59.643898010253906,-0.0004936712794005871,0.027921147644519806,0.017058778554201126,6
05/05/2021,04:45:01.406243,51:36:40.0,-10:55:48.4,18.032527569270528,107.84423371116249,25.035450515845607,0.30125463008880615,0.10344520956277847,-6.872229278087616e-06,10.500327110290527,-11.204188346862793,59.188201904296875,-0.003949370235204697,0.028649523854255676,0.011697448790073395,
05/05/2021,04:45:02.138483,51:36:45.4,-10:49:48.9,16.272049725794325,121.28138780873364,29.065429465787798,0.3006437420845032,0.10466694086790085,0.0012148581445217133,9.888603210449219,-10.975998878479004,58.650272369384766,-0.004443041514605284,0.02694997750222683,0.015352901071310043,
05/05/2021,04:45:02.857169,51:36:50.5,-10:43:49.3,13.588327528244683,134.404667393186,32.51624935524792,0.3027817904949188,0.1071104109287262,0.00029855966567993164,10.095091819763184,-10.804216384887695,58.9437141418457,-0.003208863316103816,0.028649523854255676,0.016815081238746643,
05/05/2021,04:45:03.558678,51:36:50.5,-10:43:49.3,10.430080499429344,146.5549865303701,35.130043222301325,0.29697856307029724,0.10466694086790085,0.0012148581445217133,10.11418342590332,-10.806161880493164,59.07571792602539,-0.005183548666536808,0.02913510985672474,0.015596598386764526,
05/05/2021,04:45:04.155213,51:36:55.2,-10:37:49.7,7.302231227515149,157.02753799983222,36.8672267056132,0.3000328838825226,0.10497237741947174,-0.0003123050555586815,9.659242630004883,-10.616374015808105,59.02574157714844,-0.0034556991886347532,0.027435559779405594,0.01437811367213726,
05/05/2021,04:45:04.758861,51:36:59.6,-10:31:50.1,3.835261355762526,167.5471084915407,37.915694894156005,0.299422025680542,0.10252891480922699,0.00029855966567993164,9.623571395874023,-10.78713607788086,58.996131896972656,-0.006170891225337982,0.028892317786812782,0.015109204687178135,
05/05/2021,04:45:06.222131,51:36:59.6,-10:31:50.1,357.1142329093951,187.20196501795854,38.174261950470594,0.2988111674785614,0.10588867962360382,0.0006039924919605255,10.051218032836914,-10.514169692993164,58.87696838378906,-0.0012341781985014677,0.028163937851786613,0.013159629888832569,7
05/05/2021,04:45:06.519117,51:37:03.7,-10:25:50.5,353.56055826844084,197.69579935687443,37.33862928665456,0.29728400707244873,0.10436151176691055,0.00029855966567993164,10.003030776977539,-11.289346694946289,58.75507354736328,-0.0017278495943173766,0.028163937851786613,0.017546173185110092,
05/05/2021,04:45:07.115786,51:37:07.5,-10:19:50.9,350.25761368205883,208.05173217644779,35.9056282780292,0.2997274398803711,0.10466694086790085,0.0006039924919605255,10.636459350585938,-11.249917030334473,59.52998733520508,-0.0014810138382017612,0.027192767709493637,0.016083991155028343,
05/05/2021,04:45:07.715911,51:37:07.5,-10:19:50.9,347.2331085873815,218.74522660518147,33.89789075640937,0.2991165816783905,0.10649953782558441,-6.872229278087616e-06,10.326159477233887,-11.40572452545166,59.67649841308594,-0.005183548666536808,0.026707183569669724,0.01584029383957386,
05/05/2021,04:45:08.308796,51:37:10.9,-10:13:51.2,344.7060743444865,229.3079775528228,31.387919179834743,0.29636770486831665,0.10375064611434937,0.00029855966567993164,10.545872688293457,-10.811057090759277,59.682743072509766,-0.0014810138382017612,0.027921147644519806,0.015352901071310043,
05/05/2021,04:45:08.913244,51:37:14.0,-10:07:51.5,342.59614524005224,240.75758758305525,28.254889209435092,0.299422025680542,0.10619410872459412,0.00029855966567993164,10.6707124710083,-10.959832191467285,59.02555847167969,-0.006417726632207632,0.028892317786812782,0.01437811367213726,
05/05/2021,04:45:09.510593,51:37:14.0,-10:07:51.5,341.14570675847585,252.1240810412778,24.760868373474633,0.30156004428863525,0.1022234857082367,0.0012148581445217133,10.613700866699219,-10.76951789855957,59.11054611206055,-0.0012341781985014677,0.027435559779405594,0.015596598386764526,
05/05/2021,04:45:10.968353,51:37:16.8,-10:01:51.8,340.4493604348566,274.3883393957417,17.600572745780582,0.299422025680542,0.10466694086790085,0.00029855966567993164,10.301797866821289,-11.058208465576172,59.02736282348633,-0.004443041514605284,0.02622159756720066,0.01803356595337391,8
05/05/2021,04:45:11.270303,51:37:19.2,-9:55:52.1,341.07231296074946,286.0538175546924,13.800187189693785,0.2978948652744293,0.10619410872459412,0.0006039924919605255,10.121659278869629,-10.748734474182129,58.91783905029297,-0.0024683563970029354,0.025250427424907684,0.019252052530646324,
05/05/2021,04:45:11.864302,51:37:21.3,-9:49:52.4,342.39230165936783,297.1680926174339,10.321941529395119,0.30156004428863525,0.10558323562145233,0.0006039924919605255,10.520578384399414,-10.53862190246582,58.415863037109375,-0.0014810138382017612,0.029377900063991547,0.011941145174205303,
05/05/2021,04:45:12.452273,51:37:21.3,-9:49:52.4,344.3071469007282,308.1939850323154,7.2316198781019105,0.299422025680542,0.10405607521533966,-6.872229278087616e-06,10.314492225646973,-11.05571174621582,58.532005310058594,-0.0037025348283350468,0.027921147644519806,0.016815081238746643,
05/05/2021,04:45:13.074117,51:37:23.1,-9:43:52.7,346.85619398954447,319.49923559934507,4.399418332619478,0.29758942127227783,0.10466694086790085,-6.872229278087616e-06,10.28749942779541,-11.12230396270752,57.91748046875,-0.004689877387136221,0.028649523854255676,0.015352901071310043,
05/05/2021,04:45:13.669388,51:37:23.1,-9:43:52.7,349.7886050823215,330.33100037763654,2.2663165307654682,0.2985057234764099,0.10313978046178818,-0.0009231707081198692,10.31851863861084,-10.72569751739502,58.78609085083008,-0.004936712794005871,0.0276783537119627,0.01657138578593731,
05/05/2021,04:45:15.114901,51:37:24.6,-9:37:53.0,356.07694211198566,350.0898830190635,0.056044843760168564,0.30156004428863525,0.10313978046178818,0.0021311556920409203,10.231645584106445,-10.982746124267578,58.4439697265625,-0.0012341781985014677,0.02913510985672474,0.012184842489659786,9
05/05/2021,04:45:15.408489,51:37:25.7,-9:31:53.3,359.69552308012726,0.4570026212802641,359.7304294022108,0.2997274398803711,0.10833212733268738,-0.0018394682556390762,10.352145195007324,-11.478988647460938,58.94108581542969,-0.002221520757302642,0.02913510985672474,0.011210055090487003,
05/05/2021,04:45:16.003378,51:37:26.5,-9:25:53.5,3.2791725398626523,10.711132538491615,0.10599344353130323,0.3006437420845032,0.10466694086790085,0.0015202900394797325,10.437793731689453,-11.080987930297852,58.46001434326172,-0.0029620276764035225,0.026464389637112617,0.01657138578593731,
05/05/2021,04:45:16.607101,51:37:26.5,-9:25:53.5,6.796805339783845,21.162781067772567,1.1070012021825242,0.30247634649276733,0.10588867962360382,-0.0006177378818392754,10.447962760925293,-10.904778480529785,58.8134880065918,-0.0004936712794005871,0.028163937851786613,0.014134417288005352,
05/05/2021,04:45:17.225141,51:37:26.9,-9:19:53.8,10.179467198403238,31.984850392537176,2.8493779771411343,0.2978948652744293,0.10497237741947174,0.0006039924919605255,10.240615844726562,-11.234830856323242,59.081336975097656,-0.0007405069191008806,0.028892317786812782,0.013159629888832569,
05/05/2021,04:45:17.819224,51:37:27.0,-9:13:54.1,13.020814794071141,42.82406349211852,5.117996495100308,0.294840544462204,0.10375064611434937,-0.0006177378818392754,10.016520500183105,-11.031243324279785,59.552345275878906,-0.0009873425588011742,0.028892317786812782,0.015109204687178135,
05/05/2021,04:45:18.424052,51:37:27.0,-9:13:54.1,15.414971975531737,53.64829115666085,7.882222717302305,0.29758942127227783,0.10252891480922699,-0.0018394682556390762,10.151371955871582,-10.842119216918945,59.15732955932617,-0.0007405069191008806,0.02840672992169857,0.017058778554201126,
05/05/2021,04:45:19.894317,51:37:26.8,-9:07:54.3,18.408491917039292,75.52492603044271,14.564357291771275,0.2985057234764099,0.10527780652046204,-0.001228603534400463,10.392887115478516,-10.92868709564209,58.887290954589844,-0.0024683563970029354,0.02840672992169857,0.012184842489659786,10
05/05/2021,04:45:20.192634,51:37:26.2,-9:01:54.6,18.965268447611223,87.02708070596007,18.301662635778417,0.2997274398803711,0.10466694086790085,0.00029855966567993164,10.236715316772461,-10.634699821472168,58.515018463134766,-0.005430384073406458,0.02840672992169857,0.015596598386764526,
05/05/2021,04:45:20.785996,51:37:25.4,-8:55:54.9,18.78434527423405,98.39231057918619,22.223591408145587,0.2988111674785614,0.10344520956277847,0.0006039924919605255,10.08434772491455,-10.940665245056152,58.84490966796875,-0.0037025348283350468,0.028163937851786613,0.01437811367213726,
05/05/2021,04:45:21.396884,51:37:25.4,-8:55:54.9,17.894335766888243,110.03992779345732,25.865666839649826,0.2997274398803711,0.10283434391021729,-0.0003123050555586815,10.23757553100586,-11.20987606048584,58.01836013793945,-0.007651905063539743,0.028163937851786613,0.01584029383957386,
05/05/2021,04:45:21.992371,51:37:24.2,-8:49:55.1,16.400076499144337,121.265814977426,29.180542058964605,0.2978948652744293,0.10558323562145233,0.00029855966567993164,9.86790943145752,-10.554231643676758,58.052486419677734,-0.0069113983772695065,0.02913510985672474,0.014865507371723652,
05/05/2021,04:45:22.593077,51:37:24.2,-8:49:55.1,14.264541869285333,132.36204468038034,32.10477826907884,0.299422025680542,0.10497237741947174,0.0021311556920409203,10.277077674865723,-10.998676300048828,58.875553131103516,-0.0029620276764035225,0.029377900063991547,0.011941145174205303,
05/05/2021,04:45:24.038884,51:37:22.6,-8:43:55.4,8.799120971863157,152.57618077432983,36.322812817438994,0.30156004428863525,0.10558323562145233,0.00029855966567993164,10.188284873962402,-10.815202713012695,58.255096435546875,-0.0014810138382017612,0.029377900063991547,0.014865507371723652,11
05/05/2021,04:45:24.337570,51:37:20.7,-8:37:55.7,5.535058091105042,162.85907155091905,37.625029363836944,0.2982002794742584,0.10894300043582916,-0.0003123050555586815,10.748449325561523,-10.733229637145996,59.065216064453125,-0.003208863316103816,0.0276783537119627,0.015109204687178135,
05/05/2021,04:45:24.931170,51:37:18.5,-8:31:56.0,1.921270528378645,173.2967480744791,38.359708416625615,0.30094918608665466,0.10680496692657471,0.00029855966567993164,10.241894721984863,-10.687568664550781,58.59040069580078,-0.0074050696566700935,0.027435559779405594,0.01803356595337391,
05/05/2021,04:45:25.546050,51:37:18.5,-8:31:56.0,358.27210386641207,183.83726356864852,38.46073032954469,0.2997274398803711,0.10405607521533966,-0.0009231707081198692,10.222614288330078,-10.9436616897583,59.13938903808594,-0.0017278495943173766,0.027921147644519806,0.01803356595337391,
05/05/2021,04:45:26.145400,51:37:16.0,-8:25:56.3,354.69319872010715,194.0824243802626,37.86112509778219,0.3036980926990509,0.10619410872459412,0.0006039924919605255,10.298240661621094,-11.027885437011719,59.70966720581055,-0.0,0.028649523854255676,0.014621810987591743,
05/05/2021,04:45:26.750598,51:37:13.1,-8:19:56.6,351.2346440682988,204.7296101264236,36.60878942289284,0.3006437420845032,0.10588867962360382,-0.0003123050555586815,10.100183486938477,-10.816741943359375,59.57328414916992,-0.0069113983772695065,0.02913510985672474,0.015596598386764526,
05/05/2021,04:45:27.356190,51:37:13.1,-8:19:56.6,348.1017933903649,215.41535912063853,34.75300311973828,0.2997274398803711,0.10436151176691055,0.0009094253182411194,10.528642654418945,-10.930136680603027,59.81992721557617,-0.004689877387136221,0.02840672992169857,0.015352901071310043,
05/05/2021,04:45:27.955525,51:37:09.9,-8:13:57.0,345.41732072578014,226.12756826769805,32.338210229247785,0.30094918608665466,0.1071104109287262,0.0009094253182411194,10.146138191223145,-10.681022644042969,59.401981353759766,-0.0004936712794005871,0.030106279999017715,0.015109204687178135,
05/05/2021,04:45:29.417380,51:37:09.9,-8:13:57.0,341.66424618252677,247.95224930755822,26.13094967946583,0.29728400707244873,0.1071104109287262,0.0006039924919605255,9.842262268066406,-11.59627914428711,58.752410888671875,-0.0034556991886347532,0.028892317786812782,0.014134417288005352,12
05/05/2021,04:45:29.732824,51:37:02.5,-8:01:57.7,340.5845332936257,259.690243584927,22.42531592264004,0.2978948652744293,0.10558323562145233,-0.0003123050555586815,10.239245414733887,-11.383748054504395,59.11294174194336,-0.004196206107735634,0.028163937851786613,0.01657138578593731,
05/05/2021,04:45:30.338115,51:37:02.5,-8:01:57.7,340.2732713278645,270.98969190625667,18.66442422788155,0.3000328838825226,0.10588867962360382,0.0012148581445217133,10.124188423156738,-10.98920726776123,59.02030944824219,-0.0007405069191008806,0.027921147644519806,0.014865507371723652,
05/05/2021,04:45:30.923186,51:36:58.3,-7:55:58.1,340.6802242438976,282.50794533764775,14.795060591366795,0.3000328838825226,0.10588867962360382,-6.872229278087616e-06,9.589400291442871,-11.151041984558105,59.17399215698242,-0.0029620276764035225,0.028649523854255676,0.017789868637919426,
05/05/2021,04:45:31.519889,51:36:58.3,-7:55:58.1,341.7936082578595,294.08122960318167,11.14896644730965,0.3006437420845032,0.10863757133483887,-0.0003123050555586815,10.329195022583008,-11.270238876342773,59.359859466552734,-0.0017278495943173766,0.028892317786812782,0.016815081238746643,
05/05/2021,04:45:32.139613,51:36:53.8,-7:49:58.5,343.62117563445815,305.7117064577306,7.851830936816687,0.29758942127227783,0.10649953782558441,-0.001228603534400463,10.535284996032715,-11.121613502502441,59.567012786865234,-0.002715192036703229,0.028649523854255676,0.017546173185110092,
05/05/2021,04:45:32.759045,51:36:48.9,-7:43:58.9,346.07115168313703,317.1498246946845,4.911251364679076,0.3000328838825226,0.10680496692657471,-0.0009231707081198692,10.333794593811035,-11.49172306060791,58.91305160522461,-0.0009873425588011742,0.02840672992169857,0.014621810987591743,
05/05/2021,04:45:34.229054,51:36:48.9,-7:43:58.9,351.9053985268717,337.6137220235612,1.2592463322255198,0.2988111674785614,0.10497237741947174,-6.872229278087616e-06,10.024809837341309,-11.214300155639648,59.307403564453125,-0.005183548666536808,0.02694997750222683,0.017546173185110092,13
05/05/2021,04:45:34.532704,51:36:43.7,-7:37:59.4,355.35844761932213,348.13273670862594,0.17707042641697238,0.2997274398803711,0.10436151176691055,0.0012148581445217133,9.907073974609375,-11.531344413757324,59.330474853515625,-0.005430384073406458,0.027435559779405594,0.017789868637919426,
05/05/2021,04:45:35.140888,51:36:38.2,-7:31:59.9,358.9755549741503,358.7494450834933,359.7443556510004,0.2985057234764099,0.10558323562145233,-6.872229278087616e-06,10.627238273620605,-10.821174621582031,59.09209060668945,-0.0007405069191008806,0.02840672992169857,0.013403326272964478,
05/05/2021,04:45:35.773652,51:36:32.3,-7:26:00.4,2.7446156818778324,9.423960337514263,0.04534068001566235,0.2982002794742584,0.10436151176691055,-0.0018394682556390762,10.174723625183105,-10.730899810791016,58.78578567504883,-0.003208863316103816,0.0276783537119627,0.015596598386764526,
05/05/2021,04:45:36.376834,51:36:32.3,-7:26:00.4,6.21084341088845,19.868345814386554,0.9827788442002097,0.30217090249061584,0.10588867962360382,0.0006039924919605255,9.665027618408203,-10.774285316467285,58.95500564575195,-0.0019746851176023483,0.02840672992169857,0.014865507371723652,
05/05/2021,04:45:36.994721,51:36:26.2,-7:20:00.9,9.626980880403723,30.698684790688755,2.6103552936931265,0.3000328838825226,0.10344520956277847,0.0009094253182411194,9.909144401550293,-10.856281280517578,58.94717788696289,-0.0037025348283350468,0.030106279999017715,0.015596598386764526,
05/05/2021,04:45:37.592868,51:36:26.2,-7:20:00.9,12.591621928326818,41.53272402197381,4.845837789224218,0.2997274398803711,0.10375064611434937,0.0021311556920409203,9.462822914123535,-11.016677856445312,59.25093078613281,-0.003949370235204697,0.028892317786812782,0.013159629888832569,
05/05/2021,04:45:39.041229,51:36:19.6,-7:14:01.4,16.739840844312035,62.317061383308896,10.429752650349185,0.299422025680542,0.10405607521533966,0.0012148581445217133,9.805327415466309,-10.53050422668457,59.17919158935547,-0.004196206107735634,0.028892317786812782,0.016083991155028343,14
05/05/2021,04:45:39.348245,51:36:12.8,-7:08:02.0,18.07042316633305,73.63302510205172,13.979143268589997,0.30156004428863525,0.10741584002971649,0.00029855966567993164,10.084996223449707,-10.969773292541504,59.51322555541992,-0.0012341781985014677,0.02913510985672474,0.014865507371723652,
05/05/2021,04:45:39.965755,51:36:05.6,-7:02:02.7,18.727799845642803,85.66123411725428,17.946079572492966,0.2982002794742584,0.10466694086790085,0.00029855966567993164,9.670100212097168,-11.423134803771973,59.628692626953125,-0.0029620276764035225,0.028649523854255676,0.016815081238746643,
05/05/2021,04:45:40.566159,51:36:05.6,-7:02:02.7,18.663316029688716,97.13005063943282,21.787675074937034,0.2997274398803711,0.10863757133483887,-0.001228603534400463,9.870413780212402,-11.550768852233887,59.16124725341797,-0.0029620276764035225,0.027192767709493637,0.017058778554201126,
05/05/2021,04:45:41.170214,51:35:58.1,-6:56:03.3,17.846232452111135,108.7447190211478,25.554078732355723,0.30094918608665466,0.10405607521533966,0.0006039924919605255,10.189584732055664,-11.224752426147461,58.993492126464844,-0.0014810138382017612,0.02913510985672474,0.013159629888832569,
05/05/2021,04:45:41.782800,51:35:50.3,-6:50:04.0,16.303502746922234,120.28472660504538,29.124141771893225,0.3006437420845032,0.10619410872459412,-0.0003123050555586815,9.86947250366211,-10.318883895874023,59.67918395996094,-0.005924055352807045,0.028163937851786613,0.015596598386764526,
05/05/2021,04:45:42.395460,51:35:50.3,-6:50:04.0,14.169807145497257,131.50223314690246,32.168435632143364,0.2988111674785614,0.10619410872459412,-0.00214490108191967,10.14023494720459,-10.80967903137207,59.44699478149414,-0.004196206107735634,0.026707183569669724,0.01584029383957386,
05/05/2021,04:45:43.851656,51:35:42.1,-6:44:04.7,8.815135204145898,151.8840640453541,36.404249162913054,0.30400350689888,0.10588867962360382,-6.872229278087616e-06,9.773774147033691,-10.669954299926758,58.81907653808594,-0.002715192036703229,0.027921147644519806,0.01803356595337391,15
05/05/2021,04:45:44.181168,51:35:33.6,-6:38:05.5,5.303253423505857,163.02836461968698,37.88523908064692,0.29667311906814575,0.10252891480922699,0.00029855966567993164,9.852898597717285,-11.012829780578613,59.180091857910156,-0.0012341781985014677,0.028649523854255676,0.012915932573378086,
05/05/2021,04:45:44.794049,51:35:24.7,-6:32:06.3,1.780011757615615,173.5356817520245,38.601340018893154,0.30094918608665466,0.10527780652046204,0.0009094253182411194,9.741135597229004,-11.364255905151367,58.92296600341797,-0.0024683563970029354,0.029620693996548653,0.016083991155028343,
05/05/2021,04:45:45.399430,51:35:24.7,-6:32:06.3,358.0752674194858,183.99408471199203,38.63235590791418,0.29758942127227783,0.10466694086790085,0.0006039924919605255,9.67772102355957,-11.414958953857422,58.438072204589844,-0.004936712794005871,0.0276783537119627,0.015352901071310043,
05/05/2021,04:45:46.016713,51:35:15.6,-6:26:07.2,354.48398618384823,194.4369248585646,38.02245075088331,0.2982002794742584,0.10497237741947174,-0.0003123050555586815,9.560441017150879,-11.10824203491211,59.23592758178711,-0.0019746851176023483,0.027435559779405594,0.014865507371723652,
05/05/2021,04:45:46.622813,51:35:15.6,-6:26:07.2,351.0763219908852,205.078742076038,36.75362016914838,0.30156004428863525,0.10466694086790085,0.0006039924919605255,9.904211044311523,-11.254647254943848,59.004981994628906,-0.0012341781985014677,0.0276783537119627,0.012672236189246178,
05/05/2021,04:45:48.095741,51:35:06.1,-6:20:08.1,345.48241925875953,225.92449308329523,32.633957420309336,0.2982002794742584,0.10497237741947174,0.00029855966567993164,9.6401948928833,-10.661808013916016,58.942970275878906,-0.005183548666536808,0.028163937851786613,0.016815081238746643,16
05/05/2021,04:45:48.423038,51:34:56.3,-6:14:09.0,343.13322350505786,237.43991881636993,29.552094104529544,0.3000328838825226,0.10741584002971649,0.0012148581445217133,10.008462905883789,-11.101452827453613,58.70367431640625,-0.004443041514605284,0.027192767709493637,0.01657138578593731,
05/05/2021,04:45:49.039767,51:34:46.1,-6:08:10.0,341.4713889611223,249.11853142909456,26.0053646987441,0.2982002794742584,0.10497237741947174,0.0009094253182411194,9.969564437866211,-11.194867134094238,58.815460205078125,-0.0037025348283350468,0.028892317786812782,0.017058778554201126,
05/05/2021,04:45:49.655715,51:34:46.1,-6:08:10.0,340.4384338397319,260.84802212094667,22.238153371456054,0.2991165816783905,0.10558323562145233,0.0006039924919605255,9.68480396270752,-10.725839614868164,59.30478286743164,-0.004689877387136221,0.0276783537119627,0.01730247773230076,
05/05/2021,04:45:50.283484,51:34:35.6,-6:02:11.0,340.2220158807854,272.9780214453499,18.25307608511753,0.2939242422580719,0.10558323562145233,0.00029855966567993164,9.77488899230957,-11.655046463012695,58.89583206176758,-0.005430384073406458,0.028163937851786613,0.016083991155028343,
05/05/2021,04:45:50.905583,51:34:24.8,-5:56:12.1,340.7992180920703,284.9207779638465,14.267871586505715,0.3000328838825226,0.10375064611434937,0.0015202900394797325,9.623031616210938,-11.118498802185059,59.4209098815918,-0.0012341781985014677,0.02986348792910576,0.011941145174205303,
05/05/2021,04:45:51.519866,51:34:24.8,-5:56:12.1,342.1521197647516,296.8182844790917,10.609606899121253,0.30125463008880615,0.10588867962360382,0.0015202900394797325,9.700815200805664,-11.209081649780273,59.43714141845703,-0.003949370235204697,0.026464389637112617,0.014134417288005352,
05/05/2021,04:45:53.010599,51:34:13.6,-5:50:13.2,346.4965290344563,318.4933912063177,4.795962040357493,0.3006437420845032,0.10375064611434937,0.0018257228657603264,10.21627140045166,-11.2952299118042,59.5263557434082,-0.0012341781985014677,0.029620693996548653,0.012672236189246178,17
05/05/2021,04:45:53.321890,51:34:02.2,-5:44:14.4,349.4783565458784,329.48981477002525,2.639649975043311,0.29636770486831665,0.10466694086790085,0.0012148581445217133,9.91879653930664,-10.908961296081543,59.3590087890625,-0.0024683563970029354,0.028649523854255676,0.01657138578593731,
05/05/2021,04:45:53.932132,51:33:50.3,-5:38:15.6,352.81820293679874,340.1963702279993,1.0680081858194501,0.3003383278846741,0.10405607521533966,0.0006039924919605255,10.012642860412598,-11.46185302734375,59.26911163330078,-0.0024683563970029354,0.028163937851786613,0.015109204687178135,
05/05/2021,04:45:54.567676,51:33:50.3,-5:38:15.6,356.5171796070613,351.1707126438938,0.1742583761706973,0.30156004428863525,0.10680496692657471,-6.872229278087616e-06,10.194986343383789,-11.157591819763184,59.08069610595703,-0.0012341781985014677,0.028163937851786613,0.015352901071310043,
05/05/2021,04:45:55.189843,51:33:38.2,-5:32:16.9,0.25151990191672124,1.8217068608473692,359.9772052541662,0.299422025680542,0.10436151176691055,0.00029855966567993164,9.811179161071777,-11.379440307617188,59.11268615722656,-0.006664562504738569,0.030349070206284523,0.017058778554201126,
05/05/2021,04:45:55.801386,51:33:25.7,-5:26:18.3,3.8568823195802016,12.306216497442312,0.47653781608014684,0.30125463008880615,0.10558323562145233,0.0009094253182411194,9.77763557434082,-11.226091384887695,59.25318908691406,-0.0017278495943173766,0.027192767709493637,0.01437811367213726,
05/05/2021,04:45:56.420932,51:33:25.7,-5:26:18.3,7.436220756010581,23.06037837393136,1.6311122463271617,0.30094918608665466,0.10619410872459412,-0.0006177378818392754,9.666203498840332,-11.453428268432617,58.899658203125,-0.005430384073406458,0.0276783537119627,0.014134417288005352,
05/05/2021,04:45:57.918993,51:33:12.9,-5:20:19.7,13.2758352746592,44.161687739173814,5.6511888093550064,0.2982002794742584,0.10527780652046204,-6.872229278087616e-06,9.678513526916504,-11.535690307617188,58.89586639404297,-0.0007405069191008806,0.026464389637112617,0.015109204687178135,18
05/05/2021,04:45:58.234593,51:32:59.8,-5:14:21.1,15.677317834004635,55.79269051828888,8.671209457955388,0.30125463008880615,0.10466694086790085,0.0012148581445217133,9.938750267028809,-11.26510238647461,58.9685173034668,-0.0012341781985014677,0.029620693996548653,0.012915932573378086,
05/05/2021,04:45:58.868784,51:32:46.3,-5:08:22.7,17.570733356844087,67.4505837521663,12.062865395051219,0.30094918608665466,0.10527780652046204,0.0012148581445217133,10.033145904541016,-11.211880683898926,59.255008697509766,-0.004443041514605284,0.028892317786812782,0.01730247773230076,
05/05/2021,04:45:59.482121,51:32:46.3,-5:08:22.7,18.68502749351289,79.08664428636175,15.768678444342726,0.29606226086616516,0.10405607521533966,0.00029855966567993164,10.303546905517578,-11.276476860046387,58.91458511352539,-0.0012341781985014677,0.02840672992169857,0.013890719972550869,
05/05/2021,04:46:00.101799,51:32:32.5,-5:02:24.3,19.016308743731436,91.09131646968446,19.702338066609393,0.2978948652744293,0.10313978046178818,0.0009094253182411194,9.858294486999512,-11.076294898986816,59.61979293823242,-0.003949370235204697,0.027192767709493637,0.018520960584282875,
05/05/2021,04:46:00.743633,51:32:18.4,-4:56:25.9,18.60729481811627,103.34380157647358,23.730870723994833,0.2988111674785614,0.1071104109287262,-0.0003123050555586815,9.41468620300293,-11.279474258422852,59.173282623291016,-0.002221520757302642,0.02913510985672474,0.012428538873791695,
05/05/2021,04:46:02.345215,51:32:18.4,-4:56:25.9,15.331913460129797,127.70983891214458,30.964696753198655,0.3003383278846741,0.10497237741947174,0.0009094253182411194,9.578339576721191,-11.25721263885498,59.35193634033203,-0.003949370235204697,0.02840672992169857,0.015596598386764526,19
05/05/2021,04:46:02.819261,51:31:49.2,-4:44:29.4,11.965829751286496,142.15350334618714,34.37202882821331,0.2982002794742584,0.10375064611434937,0.00029855966567993164,9.714521408081055,-10.905156135559082,59.24235153198242,-0.005430384073406458,0.028892317786812782,0.014621810987591743,
05/05/2021,04:46:03.589440,51:31:49.2,-4:44:29.4,8.171906407928178,155.4197797711029,36.6802502770841,0.30094918608665466,0.10436151176691055,0.0006039924919605255,9.39820671081543,-11.155533790588379,59.267852783203125,-0.002715192036703229,0.02694997750222683,0.014621810987591743,
05/05/2021,04:46:04.207975,51:31:34.1,-4:38:31.3,4.797421139518937,165.85468323785992,37.8326978504566,0.3003383278846741,0.10405607521533966,0.0006039924919605255,9.286174774169922,-11.058883666992188,58.6756706237793,-0.0034556991886347532,0.027435559779405594,0.014865507371723652,
05/05/2021,04:46:04.839243,51:31:18.7,-4:32:33.2,0.9087959426579241,176.9709936969741,38.43792432790601,0.2991165816783905,0.10497237741947174,0.0021311556920409203,9.943645477294922,-11.544878005981445,59.11362838745117,-0.002221520757302642,0.028892317786812782,0.013403326272964478,
05/05/2021,04:46:05.461703,51:31:18.7,-4:32:33.2,357.1838421419911,187.5933075366436,38.224156482357536,0.299422025680542,0.10436151176691055,-0.0006177378818392754,9.747936248779297,-10.889216423034668,59.24014663696289,-0.004196206107735634,0.028649523854255676,0.013890719972550869,
05/05/2021,04:46:06.944168,51:31:02.9,-4:26:35.2,350.5436287073267,208.07380734784525,36.11429738736226,0.29636770486831665,0.10436151176691055,-0.0006177378818392754,9.51209831237793,-11.597125053405762,59.6627082824707,-0.003949370235204697,0.028163937851786613,0.015596598386764526,20
05/05/2021,04:46:07.264485,51:30:46.8,-4:20:37.2,347.48750495943415,219.0894271582151,33.99053544231142,0.30156004428863525,0.10588867962360382,-6.872229278087616e-06,9.653557777404785,-10.926811218261719,59.20551300048828,-0.003949370235204697,0.029620693996548653,0.015109204687178135,
05/05/2021,04:46:07.891850,51:30:30.4,-4:14:39.4,344.8046766628921,230.41920834964884,31.240981320220257,0.30094918608665466,0.10405607521533966,-6.872229278087616e-06,9.680849075317383,-11.057226181030273,59.019691467285156,-0.00024683563970029354,0.029620693996548653,0.01437811367213726,
05/05/2021,04:46:08.512933,51:30:30.4,-4:14:39.4,342.750265043579,242.0325380142865,28.008170823783182,0.299422025680542,0.10436151176691055,0.0006039924919605255,9.294845581054688,-11.037352561950684,58.528846740722656,-0.0029620276764035225,0.02913510985672474,0.014865507371723652,
05/05/2021,04:46:09.152942,51:30:13.6,-4:08:41.6,341.3545824810313,254.01773049809634,24.25199708219388,0.2988111674785614,0.10649953782558441,0.0009094253182411194,9.209060668945312,-11.069527626037598,59.00876235961914,-0.0009873425588011742,0.028892317786812782,0.011453751474618912,
05/05/2021,04:46:09.774629,51:29:56.5,-4:02:43.9,340.73554536108014,265.9323807881583,20.383577719331882,0.3006437420845032,0.10558323562145233,-0.0003123050555586815,9.22881031036377,-11.327967643737793,59.150726318359375,-0.004936712794005871,0.02840672992169857,0.01730247773230076,
05/05/2021,04:46:11.257245,51:29:56.5,-4:02:43.9,341.65605166307006,288.3072130750955,13.038087488708456,0.2988111674785614,0.10680496692657471,-0.0003123050555586815,9.131518363952637,-10.966839790344238,59.12443542480469,-0.002221520757302642,0.027192767709493637,0.017789868637919426,21
05/05/2021,04:46:11.575223,51:29:39.1,-3:56:46.2,343.1484719023799,299.9422559111046,9.554942021453952,0.30125463008880615,0.1071104109287262,0.0009094253182411194,9.28322982788086,-10.681551933288574,59.35002899169922,-0.0009873425588011742,0.028649523854255676,0.013159629888832569,
05/05/2021,04:46:12.190227,51:29:21.4,-3:50:48.7,345.32202763402745,311.4022649043484,6.464986212168163,0.29697856307029724,0.10649953782558441,0.0009094253182411194,9.540727615356445,-11.211445808410645,58.97630310058594,-0.0024683563970029354,0.028163937851786613,0.016327690333127975,
05/05/2021,04:46:12.820527,51:29:03.3,-3:44:51.2,348.19344599129,323.035699230808,3.7878180080139714,0.29667311906814575,0.10741584002971649,0.0009094253182411194,9.666788101196289,-11.975384712219238,58.991756439208984,-0.0014810138382017612,0.03059186413884163,0.013890719972550869,
05/05/2021,04:46:13.449335,51:29:03.3,-3:44:51.2,351.3802765080082,333.9696880353124,1.8500314418920005,0.2988111674785614,0.10497237741947174,0.0015202900394797325,9.785497665405273,-10.965351104736328,59.25478744506836,-0.0037025348283350468,0.027435559779405594,0.015596598386764526,
05/05/2021,04:46:14.083580,51:28:44.9,-3:38:53.8,354.882367212473,344.8145377485063,0.5577067169595206,0.2997274398803711,0.10375064611434937,-6.872229278087616e-06,9.452550888061523,-11.440910339355469,59.010650634765625,-0.004689877387136221,0.027435559779405594,0.01876465603709221,
05/05/2021,04:46:14.702329,51:28:44.9,-3:38:53.8,358.5547202322377,355.4897148905465,359.94309612654956,0.30186548829078674,0.10558323562145233,0.0009094253182411194,9.329594612121582,-11.945024490356445,59.40729522705078,-0.0019746851176023483,0.028649523854255676,0.012428538873791695,
05/05/2021,04:46:16.200876,51:28:26.2,-3:32:56.5,5.484960361090291,15.801273814609319,0.6115792470686143,0.2991165816783905,0.10436151176691055,0.0015202900394797325,9.200342178344727,-11.400805473327637,59.05318069458008,-0.0019746851176023483,0.028163937851786613,0.01584029383957386,22
05/05/2021,04:46:16.517971,51:28:07.1,-3:26:59.3,8.90409927185896,26.389958990529177,1.9975852991922554,0.30186548829078674,0.10497237741947174,0.0009094253182411194,9.436988830566406,-11.780167579650879,58.71126174926758,-0.0009873425588011742,0.028163937851786613,0.013159629888832569,
05/05/2021,04:46:17.144179,51:27:47.8,-3:21:02.2,12.129305206428873,37.6840319529821,4.104185540179792,0.29697856307029724,0.10436151176691055,0.0006039924919605255,9.221795082092285,-11.382019996643066,58.88024139404297,-0.0019746851176023483,0.028649523854255676,0.013403326272964478,
05/05/2021,04:46:17.778419,51:27:28.1,-3:15:05.2,14.904983948321687,49.33090467663369,6.890901013997702,0.2997274398803711,0.10283434391021729,0.0009094253182411194,9.36202335357666,-11.603863716125488,59.23288345336914,-0.004689877387136221,0.02840672992169857,0.018520960584282875,
05/05/2021,04:46:18.407649,51:27:28.1,-3:15:05.2,17.035594865562757,60.56592382352269,10.023224059818256,0.2985057234764099,0.10405607521533966,-6.872229278087616e-06,9.32429027557373,-11.214524269104004,58.540611267089844,-0.005924055352807045,0.02840672992169857,0.014621810987591743,
05/05/2021,04:46:19.015554,51:27:08.0,-3:09:08.2,18.46678587405806,72.31624659234329,13.555913157991096,0.2988111674785614,0.10497237741947174,-0.0009231707081198692,9.222369194030762,-11.441306114196777,58.24734115600586,-0.003208863316103816,0.027921147644519806,0.01437811367213726,
05/05/2021,04:46:19.653616,51:27:08.0,-3:09:08.2,19.249885845420238,84.63309257168143,17.52745215562101,0.30094918608665466,0.10619410872459412,-0.0006177378818392754,9.274883270263672,-11.091348648071289,58.818748474121094,-0.005430384073406458,0.028649523854255676,0.015352901071310043,
05/05/2021,04:46:21.145840,51:26:47.7,-3:03:11.4,18.51116673573751,107.52604251848828,24.871821381446903,0.299422025680542,0.10527780652046204,-0.0003123050555586815,9.024500846862793,-11.496111869812012,59.210384368896484,-0.0017278495943173766,0.027192767709493637,0.013403326272964478,23
05/05/2021,04:46:21.490728,51:26:27.0,-2:57:14.6,16.98978307925219,119.71881811155313,28.528429747957638,0.30094918608665466,0.10375064611434937,-0.0009231707081198692,9.533731460571289,-11.29269027709961,58.80080032348633,-0.003949370235204697,0.027921147644519806,0.014134417288005352,
05/05/2021,04:46:22.118489,51:26:06.0,-2:51:17.9,14.789825251367981,131.44715450143548,31.71481544860614,0.2991165816783905,0.10649953782558441,-0.0015340354293584824,9.441390037536621,-11.256075859069824,58.83799743652344,-0.004443041514605284,0.029620693996548653,0.015596598386764526,
05/05/2021,04:46:22.756063,51:25:44.6,-2:45:21.3,12.020341491052367,143.0340923151202,34.35226567584988,0.2988111674785614,0.10436151176691055,-0.0003123050555586815,9.377334594726562,-11.355031967163086,59.74618148803711,-0.005183548666536808,0.02840672992169857,0.015596598386764526,
05/05/2021,04:46:23.387624,51:25:44.6,-2:45:21.3,8.851305324669347,153.9053902283277,36.32093110032265,0.29606226086616516,0.10436151176691055,0.00029855966567993164,9.152300834655762,-11.461485862731934,59.118736267089844,-0.0009873425588011742,0.027921147644519806,0.01437811367213726,
05/05/2021,04:46:24.001424,51:25:23.0,-2:39:24.9,5.3257435288954165,164.9135241513672,37.607397230494556,0.30186548829078674,0.10466694086790085,-6.872229278087616e-06,9.289811134338379,-10.844968795776367,59.642662048339844,-0.0037025348283350468,0.028163937851786613,0.016083991155028343,
05/05/2021,04:46:24.623554,51:25:23.0,-2:39:24.9,1.6843213409522653,175.55960340688267,38.22054672738119,0.30156004428863525,0.10588867962360382,-0.0009231707081198692,9.315336227416992,-11.158251762390137,58.736385345458984,-0.004443041514605284,0.0276783537119627,0.014865507371723652,
05/05/2021,04:46:26.123523,51:25:01.0,-2:33:28.5,354.6948080834303,196.31223525746165,37.477821711750245,0.30094918608665466,0.10558323562145233,0.0006039924919605255,9.018322944641113,-11.371855735778809,59.0963020324707,-0.0029620276764035225,0.02840672992169857,0.014621810987591743,24
05/05/2021,04:46:26.456276,51:24:38.6,-2:27:32.2,351.15676710515595,207.33785446477637,36.027318343376734,0.2991165816783905,0.10436151176691055,0.0009094253182411194,8.813836097717285,-11.34251594543457,59.370975494384766,-0.0029620276764035225,0.028892317786812782,0.016083991155028343,
05/05/2021,04:46:27.092733,51:24:16.0,-2:21:36.0,347.9299722978304,218.5570139124126,33.91685136154532,0.29636770486831665,0.10619410872459412,-0.0003123050555586815,9.103596687316895,-11.334375381469727,58.94953536987305,-0.0024683563970029354,0.029377900063991547,0.014621810987591743,
05/05/2021,04:46:27.766671,51:23:53.0,-2:15:40.0,345.0256896316027,230.83295388881155,30.922346165249994,0.2991165816783905,0.10344520956277847,0.0018257228657603264,8.69467544555664,-11.160758018493652,58.632266998291016,-0.003949370235204697,0.028163937851786613,0.01657138578593731,
05/05/2021,04:46:28.400652,51:23:53.0,-2:15:40.0,342.89975227130117,242.62804854764158,27.5809390761043,0.299422025680542,0.10527780652046204,0.0006039924919605255,8.915717124938965,-11.040328025817871,58.490936279296875,-0.0012341781985014677,0.0276783537119627,0.014134417288005352,
05/05/2021,04:46:29.036547,51:23:29.7,-2:09:44.0,341.51850531356433,254.67967145131897,23.83151356141497,0.299422025680542,0.10527780652046204,-0.0003123050555586815,8.805581092834473,-11.302481651306152,58.65877914428711,-0.0009873425588011742,0.02840672992169857,0.012428538873791695,
05/05/2021,04:46:29.665163,51:23:29.7,-2:09:44.0,340.93098951663274,266.6623504255142,19.95691970754328,0.29728400707244873,0.10405607521533966,-0.0003123050555586815,9.434154510498047,-11.194941520690918,59.22471618652344,-0.005677219945937395,0.0276783537119627,0.015352901071310043,
05/05/2021,04:46:31.169512,51:23:06.1,-2:03:48.1,342.0390596434204,289.6498848319474,12.595726872017996,0.2982002794742584,0.10649953782558441,-0.0009231707081198692,8.903875350952148,-11.23055362701416,59.04389190673828,-0.0017278495943173766,0.0276783537119627,0.012672236189246178,25
05/05/2021,04:46:31.507563,51:22:42.1,-1:57:52.4,343.6273654933935,301.38561831670086,9.121879853544817,0.30247634649276733,0.10436151176691055,-0.0006177378818392754,9.582060813903809,-11.22778606414795,59.46381378173828,-0.0007405069191008806,0.02840672992169857,0.012184842489659786,
05/05/2021,04:46:32.147279,51:22:17.9,-1:51:56.7,346.0270312224197,313.54433858656404,5.88910606937453,0.2978948652744293,0.10588867962360382,0.0015202900394797325,9.020963668823242,-11.444693565368652,59.190555572509766,-0.004196206107735634,0.030106279999017715,0.01730247773230076,
05/05/2021,04:46:32.797869,51:21:53.3,-1:46:01.2,349.02183267817026,325.42825302536096,3.2394291631862293,0.2988111674785614,0.10558323562145233,0.00029855966567993164,9.104516983032227,-11.44318675994873,58.309303283691406,-0.0014810138382017612,0.028892317786812782,0.01364702358841896,
05/05/2021,04:46:33.442944,51:21:53.3,-1:46:01.2,352.3759456267195,336.57946575113385,1.4051725767909018,0.3006437420845032,0.10405607521533966,0.0006039924919605255,9.372099876403809,-11.118656158447266,58.79176712036133,-0.0014810138382017612,0.027921147644519806,0.017058778554201126,
05/05/2021,04:46:34.093999,51:21:28.3,-1:40:05.8,356.09183875456546,347.9207336132043,0.27706699720753747,0.30156004428863525,0.10313978046178818,0.0018257228657603264,9.438374519348145,-11.279318809509277,58.973655700683594,-0.0009873425588011742,0.028163937851786613,0.014134417288005352,
05/05/2021,04:46:34.736063,51:21:03.1,-1:34:10.5,359.89451175034344,358.9299087132054,359.90731676755183,0.2997274398803711,0.10466694086790085,0.0006039924919605255,9.290700912475586,-11.181269645690918,59.71901321411133,-0.0017278495943173766,0.027921147644519806,0.01096635777503252,
05/05/2021,04:46:36.244188,51:21:03.1,-1:34:10.5,6.977253815013704,19.457984633957604,1.124292466396646,0.2978948652744293,0.10252891480922699,0.0009094253182411194,8.886984825134277,-11.133962631225586,58.97620391845703,-0.0012341781985014677,0.02913510985672474,0.013403326272964478,26
05/05/2021,04:46:36.584924,51:20:37.5,-1:28:15.3,10.500215443147974,30.57934089532112,2.768141201256883,0.30217090249061584,0.10619410872459412,0.0015202900394797325,8.882834434509277,-11.476705551147461,58.954071044921875,-0.004443041514605284,0.028892317786812782,0.015596598386764526,
05/05/2021,04:46:37.218556,51:20:11.6,-1:22:20.2,13.60141587824172,42.06569392819366,5.094741408523707,0.29728400707244873,0.1071104109287262,0.0015202900394797325,9.080657958984375,-11.512136459350586,59.009193420410156,-0.004689877387136221,0.028649523854255676,0.014865507371723652,
05/05/2021,04:46:37.872727,51:19:45.4,-1:16:25.2,16.263312206298586,54.215131970974795,8.21585440636898,0.3000328838825226,0.10313978046178818,0.00029855966567993164,9.265298843383789,-11.06245231628418,59.15010070800781,-0.004689877387136221,0.027435559779405594,0.013403326272964478,
05/05/2021,04:46:38.516333,51:19:45.4,-1:16:25.2,18.186358797304845,66.06123448252649,11.688879240820818,0.2991165816783905,0.10283434391021729,-6.872229278087616e-06,9.146576881408691,-11.049726486206055,59.33734130859375,-0.006417726632207632,0.0276783537119627,0.01827726513147354,
05/05/2021,04:46:39.150901,51:19:18.8,-1:10:30.4,19.340887870826904,78.22649124342537,15.51891379432099,0.3003383278846741,0.10313978046178818,-0.00214490108191967,8.915915489196777,-11.094438552856445,58.82357406616211,-0.004443041514605284,0.027921147644519806,0.01437811367213726,
05/05/2021,04:46:39.788985,51:18:52.0,-1:04:35.7,19.652831147957848,90.61554598266889,19.647256006047826,0.29758942127227783,0.10527780652046204,0.00029855966567993164,8.83672046661377,-10.979057312011719,58.80601501464844,-0.004443041514605284,0.02840672992169857,0.015596598386764526,
05/05/2021,04:46:41.287997,51:18:52.0,-1:04:35.7,18.217914271270306,113.44051505666658,26.96506604128613,0.2985057234764099,0.10344520956277847,-0.0003123050555586815,9.158942222595215,-11.026887893676758,59.26413345336914,-0.0037025348283350468,0.0276783537119627,0.017058778554201126,27
05/05/2021,04:46:41.632501,51:18:24.8,-0:58:41.1,16.280344990541305,125.56890245642573,30.51116536212064,0.2982002794742584,0.1071104109287262,0.0018257228657603264,9.272489547729492,-11.282221794128418,59.117530822753906,-0.0009873425588011742,0.030106279999017715,0.011697448790073395,
05/05/2021,04:46:42.298598,51:17:57.3,-0:52:46.6,13.735176595399958,137.5593541858965,33.513774577866194,0.30186548829078674,0.10344520956277847,-0.0003123050555586815,9.133936882019043,-11.18972396850586,59.581016540527344,-0.004196206107735634,0.0276783537119627,0.017058778554201126,
05/05/2021,04:46:42.939029,51:17:29.4,-0:46:52.2,10.558891036986616,149.3056403129176,35.890386710896315,0.30217090249061584,0.10497237741947174,0.0009094253182411194,8.912162780761719,-11.183187484741211,59.20322799682617,-0.005183548666536808,0.02840672992169857,0.017546173185110092,
05/05/2021,04:46:43.592488,51:17:29.4,-0:46:52.2,7.048821390910743,160.6757332808328,37.48552958022861,0.30217090249061584,0.10466694086790085,-0.0009231707081198692,8.971969604492188,-10.77719783782959,58.69710922241211,-0.0012341781985014677,0.028649523854255676,0.012184842489659786,
05/05/2021,04:46:44.233780,51:17:01.3,-0:40:58.0,3.3239314098239805,171.6736355804956,38.3520346990931,0.3036980926990509,0.10619410872459412,0.0006039924919605255,8.788192749023438,-10.978352546691895,59.41933822631836,-0.003208863316103816,0.028649523854255676,0.016083991155028343,
05/05/2021,04:46:44.871069,51:16:32.8,-0:35:03.9,359.4707642862654,182.71815073352028,38.523038730248125,0.3003383278846741,0.10527780652046204,0.0012148581445217133,8.9141845703125,-11.336382865905762,59.818450927734375,-0.002221520757302642,0.027192767709493637,0.013890719972550869,
05/05/2021,04:46:46.365812,51:16:32.8,-0:35:03.9,352.5481568938103,202.9705222264435,36.86917672462124,0.29758942127227783,0.10375064611434937,-0.0006177378818392754,9.16504955291748,-10.922239303588867,59.80571746826172,-0.0024683563970029354,0.028892317786812782,0.016815081238746643,28
05/05/2021,04:46:46.727083,51:15:34.8,-0:23:16.1,349.11573838774785,214.61089944019443,34.95946607796943,0.2985057234764099,0.10313978046178818,0.0009094253182411194,8.855230331420898,-11.274067878723145,59.76692199707031,-0.0014810138382017612,0.02986348792910576,0.009260480292141438,
05/05/2021,04:46:47.365999,51:15:34.8,-0:23:16.1,346.17374710088615,226.10132668090688,32.41221532890487,0.2978948652744293,0.10558323562145233,0.0009094253182411194,8.397439956665039,-11.804097175598145,60.18794631958008,-0.0024683563970029354,0.028892317786812782,0.016327690333127975,
05/05/2021,04:46:48.018380,51:15:05.4,-0:17:22.3,343.7240536512842,238.22067774039408,29.157927302622692,0.30156004428863525,0.10772126913070679,0.0021311556920409203,8.965190887451172,-11.29201889038086,59.56003189086914,-0.0017278495943173766,0.027192767709493637,0.016815081238746643,
05/05/2021,04:46:48.688686,51:15:05.4,-0:17:22.3,342.0626152583205,250.8536795160338,25.335268499652486,0.2997274398803711,0.10405607521533966,-0.0003123050555586815,8.954158782958984,-11.248193740844727,59.63518142700195,-0.006170891225337982,0.028892317786812782,0.016083991155028343,
05/05/2021,04:46:49.337511,51:14:35.6,-0:11:28.8,341.21226012174844,262.92696777975846,21.479303986742007,0.3003383278846741,0.10466694086790085,0.0012148581445217133,8.773587226867676,-11.338746070861816,59.512367248535156,-0.004443041514605284,0.027921147644519806,0.017546173185110092,
05/05/2021,04:46:49.974839,51:14:05.5,-0:05:35.3,341.1489852492775,275.34903965344984,17.408979109372552,0.30125463008880615,0.10283434391021729,0.0009094253182411194,8.707103729248047,-11.19780445098877,59.78129196166992,-0.0012341781985014677,0.027921147644519806,0.015352901071310043,
05/05/2021,04:46:51.478135,51:14:05.5,-0:05:35.3,343.19196654701454,298.0238879996798,10.30440758002205,0.2988111674785614,0.10313978046178818,0.0015202900394797325,8.476943969726562,-10.821608543395996,59.518409729003906,-0.0007405069191008806,0.0276783537119627,0.01364702358841896,29
05/05/2021,04:46:51.821674,51:13:04.3,0:06:11.2,345.34049817309045,310.0124375214667,7.042168359772328,0.2982002794742584,0.10558323562145233,0.0009094253182411194,8.743016242980957,-11.522709846496582,59.91811752319336,-0.0007405069191008806,0.029620693996548653,0.014621810987591743,
05/05/2021,04:46:52.461884,51:13:04.3,0:06:11.2,348.0971428853137,321.6183564308549,4.322566324738963,0.29728400707244873,0.10283434391021729,-0.001228603534400463,8.713188171386719,-11.535158157348633,59.71332931518555,-0.0034556991886347532,0.027921147644519806,0.01657138578593731,
05/05/2021,04:46:53.114434,51:12:33.3,0:12:04.2,351.44075783310865,333.2231620194084,2.15902685206585,0.299422025680542,0.10405607521533966,0.00029855966567993164,9.063096046447754,-11.258756637573242,59.37465286254883,-0.004196206107735634,0.030106279999017715,0.014134417288005352,
05/05/2021,04:46:53.759356,51:12:01.9,0:17:57.1,355.13401400649786,344.4520374111389,0.7732492911142872,0.3003383278846741,0.10375064611434937,0.0009094253182411194,9.257368087768555,-10.987344741821289,59.310279846191406,-0.0029620276764035225,0.028163937851786613,0.014134417288005352,
05/05/2021,04:46:54.409501,51:12:01.9,0:17:57.1,358.98518746187074,355.8303739904955,0.10968287960123405,0.2991165816783905,0.10344520956277847,0.0015202900394797325,9.005414009094238,-11.504854202270508,59.11068344116211,-0.0017278495943173766,0.02840672992169857,0.012672236189246178,
05/05/2021,04:46:55.955514,51:11:30.2,0:23:49.9,6.113033394426576,16.62825604384154,0.9426506290527386,0.3003383278846741,0.10313978046178818,-0.0003123050555586815,8.964739799499512,-11.264849662780762,59.572723388671875,-0.002715192036703229,0.029377900063991547,0.015596598386764526,30
05/05/2021,04:46:56.305563,51:10:58.2,0:29:42.5,9.65000886319042,28.022775475775962,2.4495011370881525,0.2991165816783905,0.1019180491566658,0.0012148581445217133,9.234749794006348,-11.738980293273926,59.0828857421875,-0.0017278495943173766,0.02986348792910576,0.017058778554201126,
05/05/2021,04:46:56.972297,51:10:25.8,0:35:35.0,12.92941064127709,39.881150129718876,4.720376605681193,0.3006437420845032,0.10283434391021729,0.0009094253182411194,9.009612083435059,-11.40035629272461,58.99866485595703,-0.003949370235204697,0.02840672992169857,0.015109204687178135,
05/05/2021,04:46:57.623327,51:10:25.8,0:35:35.0,15.617367556112141,51.65922054204266,7.591901257762681,0.30094918608665466,0.10558323562145233,0.0009094253182411194,8.822595596313477,-11.721144676208496,59.17671203613281,-0.0019746851176023483,0.028649523854255676,0.014621810987591743,
05/05/2021,04:46:58.269734,51:09:53.1,0:41:27.3,17.687824997332907,63.86409240012762,11.071248286065014,0.30186548829078674,0.10375064611434937,0.00029855966567993164,8.700700759887695,-11.807927131652832,59.11171340942383,-0.005183548666536808,0.0276783537119627,0.01730247773230076,
05/05/2021,04:46:58.942206,51:09:20.2,0:47:19.5,19.02215197056638,76.55735693481434,15.08281475355214,0.3003383278846741,0.10527780652046204,0.0006039924919605255,9.35124683380127,-11.404857635498047,59.059532165527344,-0.003208863316103816,0.028649523854255676,0.014134417288005352,
05/05/2021,04:47:00.464460,51:09:20.2,0:47:19.5,19.20683687062894,99.83498313567628,22.608402558436815,0.2988111674785614,0.10252891480922699,0.0009094253182411194,9.19340991973877,-11.356710433959961,59.33150100708008,-0.0012341781985014677,0.02913510985672474,0.012184842489659786,31
05/05/2021,04:47:00.818324,51:08:13.2,0:59:03.5,18.161705229495684,112.16239541766043,26.544288822372906,0.2997274398803711,0.10130718350410461,-6.872229278087616e-06,9.019688606262207,-11.326446533203125,59.93582534790039,-0.005677219945937395,0.027435559779405594,0.016083991155028343,
05/05/2021,04:47:01.459621,51:08:13.2,0:59:03.5,16.149550283030145,125.07423283597673,30.32071578239859,0.299422025680542,0.10313978046178818,0.0021311556920409203,8.63319206237793,-11.407994270324707,59.11798095703125,-0.0009873425588011742,0.028649523854255676,0.01364702358841896,
